{"_index":"stores","_type":"_doc","_id":"W198","_score":1,"_source":{"id":"W198","name":"Opera Koriyama Honten","address1":"Minami 1-35, Koriyama-shi","city":"Fukushima","postalCode":"963-0115","countryCode":"JP","phone":"024-922-4500","location":{"lat":37.375264,"lon":140.375825}}}
{"_index":"stores","_type":"_doc","_id":"165","_score":1,"_source":{"id":"165","name":"FRED GUANGZHOU TAIKOO HUI","address1":"Shop L212a, Guangzhou Taikoo Hui Mall, No.383 Tianhe Road","city":"Guangzhou","postalCode":"510620","countryCode":"CN","phone":"020-8758 0910","email":"gz.tkh@fred.fr","location":{"lat":23.133667,"lon":113.330976}}}
{"_index":"stores","_type":"_doc","_id":"301","_score":1,"_source":{"id":"301","name":"FRED The Venetian® Macao-Resort","address1":"Shop 012, Great Hall, Shoppes at Venetian at the Venetian® Macao-Resort-Hotel","city":"Macau SAR","countryCode":"CN","stateCode":"Cotai","phone":"+853 2881 2208","location":{"lat":22.147232,"lon":113.559925}}}
{"_index":"stores","_type":"_doc","_id":"168","_score":1,"_source":{"id":"168","name":"FRED Shanghai Qiantan Taikoo Li","address1":"Shop No. L1-31, Qiantan Taikoo Li, No. 1-9, Lane 500, Dongyu Road, Pudong New District","city":"Shanghai","postalCode":"200126","countryCode":"CN","location":{"lat":31.228055,"lon":121.453825}}}
{"_index":"stores","_type":"_doc","_id":"W200","_score":1,"_source":{"id":"W200","name":"FROJO","address1":"6 rue Paradis","city":"Marseille","postalCode":"13001","countryCode":"FR","phone":"04 91 72 02 03","location":{"lat":43.294341,"lon":5.376229}}}
{"_index":"stores","_type":"_doc","_id":"081","_score":1,"_source":{"id":"081","name":"FRED MITSUKOSHI GINZA STORE","address1":"4-6-16 Ginza","address2":"Ginza Mitsukoshi Annex Building 2nd Floor","city":"Tokyo","postalCode":"104-8212","countryCode":"JP","stateCode":"Chuo-ku","phone":"0081335611061","location":{"lat":35.670939,"lon":139.766154}}}
{"_index":"stores","_type":"_doc","_id":"F8","_score":1,"_source":{"id":"F8","name":"FRED Macau Galaxy","address1":"Estrada da Baia de Nossa Senhora da Esperanca","address2":"Shop G059, Ground Floor, Galaxy Macau™","city":"Macau SAR","countryCode":"CN","stateCode":"Cotai","phone":"0085328355395","location":{"lat":22.14995,"lon":113.553024}}}
{"_index":"stores","_type":"_doc","_id":"W76","_score":1,"_source":{"id":"W76","name":"MORNIER 2","address1":"37 Cours de l’Intendance","city":"Bordeaux","postalCode":"33000","countryCode":"FR","phone":"0033556448283","location":{"lat":44.842081,"lon":-0.577305}}}
{"_index":"stores","_type":"_doc","_id":"150","_score":1,"_source":{"id":"150","name":"FRED Shanghai IFC","address1":"8 Century Avenue, LG1","address2":"世纪大道8号 上海国金中心商场LG1-45号铺","city":"Shanghai","postalCode":"200120","countryCode":"CN","phone":"00862168816506","location":{"lat":31.236978,"lon":121.501673}}}
{"_index":"stores","_type":"_doc","_id":"F6","_score":1,"_source":{"id":"F6","name":"FRED IFC BOUTIQUE","address1":"1 Harbour View Street","address2":"Shop 2023, Podium Level 2, ifc Mall","city":"Hong Kong SAR","countryCode":"CN","phone":"+ 852 2525 8818","location":{"lat":22.284897,"lon":114.158065}}}
{"_index":"stores","_type":"_doc","_id":"097","_score":1,"_source":{"id":"097","name":"LOTTE MAIN AVENUE L FRED BOUTIQUE","address1":"Seoul Lotte Main Avenue L 2F, 73, Namdaemun-ro","city":"Seoul","postalCode":"04533","countryCode":"KR","stateCode":"Jung-gu","phone":"0082221186155","location":{"lat":37.562893,"lon":126.980373}}}
{"_index":"stores","_type":"_doc","_id":"085","_score":1,"_source":{"id":"085","name":"FRED GINZA SIX","address1":"6-10-1 Ginza","address2":"GINZA SIX 1F","city":"Tokyo","postalCode":"104-0061","countryCode":"JP","stateCode":"Chuo-ku","phone":"0081335738585","location":{"lat":35.669496,"lon":139.764303}}}
{"_index":"stores","_type":"_doc","_id":"091","_score":1,"_source":{"id":"091","name":"HYUNDAI MAIN FRED BOUTIQUE","address1":"Hyundai Department Store Headquarters 2F","address2":"Apgujeong-ro 165, Gangnam-gu","city":"Seoul","postalCode":"06001","countryCode":"KR","phone":"0082234495993","location":{"lat":37.527331,"lon":127.027424}}}
{"_index":"stores","_type":"_doc","_id":"030","_score":1,"_source":{"id":"030","name":"FRED GALERIES LAFAYETTE CHAMPS-ELYSEES","address1":"60 avenue des Champs-Élysées","city":"Paris","postalCode":"75008","countryCode":"FR","phone":"0033183656100","location":{"lat":48.870464,"lon":2.306305}}}
{"_index":"stores","_type":"_doc","_id":"027","_score":1,"_source":{"id":"027","name":"FRED SAINT TROPEZ","address1":"29 rue Francois Sibilli","city":"Saint Tropez","postalCode":"83990","countryCode":"FR","phone":"0033494448888","location":{"lat":43.270285,"lon":6.640882}}}
{"_index":"stores","_type":"_doc","_id":"096","_score":1,"_source":{"id":"096","name":"SHINSEGAE DAEGU FRED BOUTIQUE","address1":"Shinsegae Department Store Daegu 5F","address2":"149, Dongbu-ro Dong-gu","city":"Daegu","postalCode":"41229","countryCode":"KR","phone":"0082536616509","location":{"lat":35.87785,"lon":128.629478}}}
{"_index":"stores","_type":"_doc","_id":"073","_score":1,"_source":{"id":"073","name":"FRED TAKASHIMAYA KYOTO STORE","address1":"52 Shinmachi Nishiiru Kawaramachi Shijodori","address2":"Kyoto Takashimaya 2F","city":"Kyoto","postalCode":"600-8520","countryCode":"JP","stateCode":"Shimogyo-ku","phone":"0081752527552","location":{"lat":35.00299,"lon":135.768941}}}
{"_index":"stores","_type":"_doc","_id":"W57","_score":1,"_source":{"id":"W57","name":"GODECHOT & PAULIET","address1":"28-30 Avenue Victor Hugo","city":"Paris","postalCode":"75016","countryCode":"FR","phone":"0033145009503","location":{"lat":48.872068,"lon":2.290567}}}
{"_index":"stores","_type":"_doc","_id":"075","_score":1,"_source":{"id":"075","name":"FRED TAKASHIMAYA OSAKA STORE","address1":"5-1-5 Nanba","address2":"Osaka Takashimaya 5F","city":"Osaka","postalCode":"542-8510","countryCode":"JP","stateCode":"Chuo-ku","phone":"0081666329313","location":{"lat":34.664607,"lon":135.501213}}}
{"_index":"stores","_type":"_doc","_id":"090","_score":1,"_source":{"id":"090","name":"GALLERIA SEOUL FRED BOUTIQUE","address1":"Galleria Luxury Hall East 2F,","address2":"407 Apgujeong-ro Gangnam-gu","city":"Seoul","postalCode":"06009","countryCode":"KR","phone":"008225143721","location":{"lat":37.527863,"lon":127.04165}}}
{"_index":"stores","_type":"_doc","_id":"F7","_score":1,"_source":{"id":"F7","name":"FRED HARBOUR CITY BOUTIQUE","address1":"3-27 Canton Road","address2":"Shop OT214A, level 2 Ocean Terminal, Harbour City","city":"Hong Kong SAR","countryCode":"CN","stateCode":"Kowloon","phone":"0085226980433","location":{"lat":22.294677,"lon":114.168801}}}
{"_index":"stores","_type":"_doc","_id":"W216","_score":1,"_source":{"id":"W216","name":"GMT – Great Masters of Time","address1":"Via della Spiga, 25","city":"Milano","postalCode":"20121","countryCode":"IT","phone":"+390240741198","location":{"lat":45.470725,"lon":9.195994}}}
{"_index":"stores","_type":"_doc","_id":"151","_score":1,"_source":{"id":"151","name":"FRED BEIJING CHINA WORLD MALL","address1":"B1, South Zone, No.1 Jian Guo Men Wai Avenue","city":"Beijing","postalCode":"100004","countryCode":"CN","phone":"00861085958958","location":{"lat":39.909939,"lon":116.459229}}}
{"_index":"stores","_type":"_doc","_id":"033","_score":1,"_source":{"id":"033","name":"FRED MONACO","address1":"One Montecarlo - Bâtiment C","address2":"Place du Casino","city":"Monaco","postalCode":"98000","countryCode":"MC","phone":"00377 97 70 02 28","location":{"lat":43.73916,"lon":7.42795}}}
{"_index":"stores","_type":"_doc","_id":"015","_score":1,"_source":{"id":"015","name":"FRED LE BON MARCHE","address1":"24 rue de Sèvres","city":"Paris","postalCode":"75007","countryCode":"FR","phone":"0033144398000","location":{"lat":48.850856,"lon":2.324487}}}
{"_index":"stores","_type":"_doc","_id":"092","_score":1,"_source":{"id":"092","name":"HYUNDAI COEX FRED BOUTIQUE","address1":"Hyundai Department Store COEX 2nd floor","address2":"517 Teheranro, Gangnam-gu","city":"Seoul","postalCode":"06164","countryCode":"KR","phone":"0082234678301","location":{"lat":37.508514,"lon":127.059759}}}
{"_index":"stores","_type":"_doc","_id":"152","_score":1,"_source":{"id":"152","name":"FRED Shanghai Grand Gateway","address1":"113 115, 1 Hong Qiao Road","city":"Shanghai","countryCode":"CN","phone":"0086 21 6428 5130","location":{"lat":31.194556,"lon":121.437247}}}
{"_index":"stores","_type":"_doc","_id":"084","_score":1,"_source":{"id":"084","name":"FRED TAKASHIMAYA YOKOHAMA STORE","address1":"1-6-31 Minamisaiwai","address2":"Takashimaya Yokohama Store 2F","city":"Yokohama","postalCode":"220-8601","countryCode":"JP","phone":"0081453230056","location":{"lat":35.465995,"lon":139.620633}}}
{"_index":"stores","_type":"_doc","_id":"157","_score":1,"_source":{"id":"157","name":"FRED Xi'an SKP","address1":"Level1, 261 Chang'an North Road","address2":"长安北路261号 西安SKP一层A1013号","city":"Xi'an","postalCode":"710000","countryCode":"CN","phone":"00862983698779","location":{"lat":34.247807,"lon":108.947721}}}
{"_index":"stores","_type":"_doc","_id":"087","_score":1,"_source":{"id":"087","name":"FRED NIHOMBASHI TAKASHIMAYA","address1":"2F 2-4-1 Nihombashi","city":"Tokyo","postalCode":"103-8265","countryCode":"JP","phone":"0081 3 3273 7111","location":{"lat":35.680768,"lon":139.773549}}}
{"_index":"stores","_type":"_doc","_id":"154","_score":1,"_source":{"id":"154","name":"FRED Beijing SKP","address1":"Level1, 87 Jian Guo Road","address2":"北京SKP一层, 建国路87号","city":"Beijing","postalCode":"100020","countryCode":"CN","phone":"00861085990727","location":{"lat":39.910247,"lon":116.478928}}}
{"_index":"stores","_type":"_doc","_id":"065","_score":1,"_source":{"id":"065","name":"FRED MATSUZAKAYA NAGOYA STORE","address1":"3-16-1 Sakae","address2":"Matsuzakaya Nagoya store main building 2F","city":"Nagoya","postalCode":"460-8430","countryCode":"JP","phone":"0081522642049","location":{"lat":35.165272,"lon":136.907853}}}
{"_index":"stores","_type":"_doc","_id":"F5","_score":1,"_source":{"id":"F5","name":"FRED ELEMENTS BOUTIQUE","address1":"1 Austin Road West","address2":"Shop 2021, Elements Level 2","city":"Hong Kong SAR","countryCode":"CN","stateCode":"Kowloon","phone":"0085229156618","location":{"lat":22.303233,"lon":114.168442}}}
{"_index":"stores","_type":"_doc","_id":"028","_score":1,"_source":{"id":"028","name":"FRED SAINT-JEAN-CAP-FERRAT","address1":"71 Boulevard du Général de Gaulle","city":"Saint-Jean-Cap-Ferrat","postalCode":"06230","countryCode":"FR","phone":"0033493765024","location":{"lat":43.68219,"lon":7.32608}}}
{"_index":"stores","_type":"_doc","_id":"077","_score":1,"_source":{"id":"077","name":"FRED DAIMARU SHINSAIBASHI BRANCH","address1":"1-7-1 Shinsaibashisuji","address2":"Daimaru Shinsaibashi store North Building 2F","city":"Osaka","postalCode":"542-8501","countryCode":"JP","stateCode":"Chuo-ku","phone":"0081662445420","location":{"lat":34.67381,"lon":135.50075}}}
{"_index":"stores","_type":"_doc","_id":"093","_score":1,"_source":{"id":"093","name":"SHINSEGAE GANGNAM FRED BOUTIQUE","address1":"Shinsegae Department Store Gangnam 3F","address2":"176, Shinbanpo-ro, Seocho-gu","city":"Seoul","postalCode":"06546","countryCode":"KR","phone":"0082234791784","location":{"lat":37.504134,"lon":127.003069}}}
{"_index":"stores","_type":"_doc","_id":"153","_score":1,"_source":{"id":"153","name":"FRED Shanghai Plaza 66","address1":"B112, No.1266, West Nanjing Road","address2":"南京西路1266号 恒隆广场B1层B112号","city":"Shanghai","postalCode":"200040","countryCode":"CN","phone":"00862162227806","location":{"lat":31.228055,"lon":121.453825}}}
{"_index":"stores","_type":"_doc","_id":"320","_score":1,"_source":{"id":"320","name":"FRED Taipei","address1":"Taipei 101, l1.38, No.45, shifu Road","city":"Taipei","countryCode":"TW","phone":"00886 2 8101 8698","email":"taipei.taipei101@fred.fr","location":{"lat":25.033863,"lon":121.564468}}}
{"_index":"stores","_type":"_doc","_id":"F2","_score":1,"_source":{"id":"F2","name":"FRED LYON","address1":"91 Rue du Président Edouard Herriot","city":"Lyon","postalCode":"69002","countryCode":"FR","phone":"0033487243980","location":{"lat":45.759617,"lon":4.834121}}}
{"_index":"stores","_type":"_doc","_id":"062","_score":1,"_source":{"id":"062","name":"FRED UMEDA HANKYU STORE","address1":"8-7 Kakuda-cho","address2":"Hankyu Department Store Umeda Main Store 5th Floor International Boutiques","city":"Osaka","postalCode":"530-8350","countryCode":"JP","stateCode":"Kita-ku","phone":"0081663137735","location":{"lat":34.702316,"lon":135.498583}}}
{"_index":"stores","_type":"_doc","_id":"098","_score":1,"_source":{"id":"098","name":"FRED BOUTIQUE BUSAN","address1":"Shinsegae Centum city Department Store 1F","address2":"35, Centumnamdae-ro, Haeundae-gu","city":"Busan","postalCode":"48058","countryCode":"KR","phone":"0082517451224","location":{"lat":35.168703,"lon":129.129747}}}
{"_index":"stores","_type":"_doc","_id":"063","_score":1,"_source":{"id":"063","name":"FRED ISETAN SHINJUKU BRANCH","address1":"3-14-1 Shinjuku","address2":"Tokyo Shinjuku Isetan 4F","city":"Shinjuku-ku","postalCode":"160-0022","countryCode":"JP","stateCode":"Tokyo","phone":"0081333562681","location":{"lat":35.692424,"lon":139.704691}}}
{"_index":"stores","_type":"_doc","_id":"W197","_score":1,"_source":{"id":"W197","name":"ROURE JOAILLIER","address1":"11-13 rue de Bordeaux","city":"Tours","postalCode":"37000","countryCode":"FR","phone":"+33 (0)2 47 60 35 30","location":{"lat":47.389494,"lon":0.690674}}}
{"_index":"stores","_type":"_doc","_id":"160","_score":1,"_source":{"id":"160","name":"FRED Chengdu IFC","address1":"3F L333K, IFS, No.1 Section 3 of Hongxing Road, Jinjiang District, Sichuan Province","city":"Chengdu","postalCode":"610011","countryCode":"CN","phone":"0086 28 81470898","location":{"lat":30.654227,"lon":104.079639}}}
{"_index":"stores","_type":"_doc","_id":"018","_score":1,"_source":{"id":"018","name":"FRED GALERIES LAFAYETTE HAUSSMANN","address1":"40 boulevard Haussmann","city":"Paris","postalCode":"75009","countryCode":"FR","phone":"0033153161748","location":{"lat":48.873702,"lon":2.331624}}}
{"_index":"stores","_type":"_doc","_id":"014","_score":1,"_source":{"id":"014","name":"FRED CANNES","address1":"21 boulevard de la Croisette","city":"Cannes","postalCode":"06400","countryCode":"FR","phone":"0033492996060","location":{"lat":43.550745,"lon":7.021628}}}
{"_index":"stores","_type":"_doc","_id":"016","_score":1,"_source":{"id":"016","name":"FRED RUE DE LA PAIX","address1":"14 rue de la Paix","city":"Paris","postalCode":"75002","countryCode":"FR","phone":"0033142866060","location":{"lat":48.869211,"lon":2.33149}}}
{"_index":"stores","_type":"_doc","_id":"023","_score":1,"_source":{"id":"023","name":"FRED PRINTEMPS HAUSSMANN","address1":"64 boulevard Haussmann","city":"Paris","postalCode":"75009","countryCode":"FR","phone":"0033148789095","location":{"lat":48.873948,"lon":2.327737}}}
{"_index":"stores","_type":"_doc","_id":"086","_score":1,"_source":{"id":"086","name":"FRED SOLARIA PLAZA","address1":"Tenjin 2-2-43","address2":"SOLARIA PLAZA","city":"Fukuoka","postalCode":"810-0001","countryCode":"JP","stateCode":"Chuo-ku","phone":"0081927337623","location":{"lat":33.589102,"lon":130.398835}}}
{"_index":"stores","_type":"_doc","_id":"020","_score":1,"_source":{"id":"020","name":"FRED PARLY 2","address1":"2 avenue du Général de Gaulle","address2":"Le Chesnay Parly 2","city":"Le Chesnay","postalCode":"78150","countryCode":"FR","phone":"0033139438212","location":{"lat":48.827584,"lon":2.116354}}}
{"_index":"stores","_type":"_doc","_id":"061","_score":1,"_source":{"id":"061","name":"FRED GINZA MAIN STORE","address1":"4-3-9 Ginza","address2":"Tokyo Ginza FRED Boutique","city":"Tokyo","postalCode":"104-0061","countryCode":"JP","stateCode":"Chuo-ku","phone":"03-3538-5855","location":{"lat":35.671979,"lon":139.764372}}}
{"_index":"stores","_type":"_doc","_id":"F11","_score":1,"_source":{"id":"F11","name":"FRED Chongqing Star Light 68","address1":"AL1-42, 1/F Building A, Star Light68 Plaza, 68, Yanghe Yi Lu, Jiangbei District","city":"Chongqing","postalCode":"200126","countryCode":"CN","phone":"0086 23 6773 0589","location":{"lat":29.578319,"lon":106.530668}}}
{"_index":"stores","_type":"_doc","_id":"F12","_score":1,"_source":{"id":"F12","name":"FRED CHANGSHA","address1":"湖南省长沙市芙蓉区长沙国金中心一层L136A","city":"CHANGSHA","countryCode":"CN","location":{"lat":28.192124,"lon":112.976941}}}
{"_index":"stores","_type":"_doc","_id":"340","_score":1,"_source":{"id":"340","name":"FRED SYDNEY WESTFIELD","address1":"Westfield Sydney","address2":"175 Pitt Street","city":"Sydney","postalCode":"NSW 2000","countryCode":"AU","phone":"02 9221 1219","email":"sydney.westfield@fred.fr","location":{"lat":-33.869532,"lon":151.208973}}}
{"_index":"stores","_type":"_doc","_id":"W195","_score":1,"_source":{"id":"W195","name":"LES AMBASSADEURS","address1":"62 Rue du Rhône","city":"Genève","postalCode":"1204","countryCode":"CH","phone":"+41 22 318 62 22","location":{"lat":46.203809,"lon":6.148802}}}
{"_index":"stores","_type":"_doc","_id":"W196","_score":1,"_source":{"id":"W196","name":"BIJOUTERIE MICHAUD","address1":"5 rue de Médran","city":"Verbier","postalCode":"CH-1936","countryCode":"CH","phone":"+41 27 771 11 09","location":{"lat":46.09535,"lon":7.230911}}}
{"_index":"stores","_type":"_doc","_id":"F10","_score":1,"_source":{"id":"F10","name":"FRED NICE","address1":"8, avenue de Verdun","city":"NICE","postalCode":"06000","countryCode":"FR","phone":"0033493808565","email":"fred.nice@ferret.fr","location":{"lat":43.69711,"lon":7.26874}}}
{"_index":"stores","_type":"_doc","_id":"W207","_score":1,"_source":{"id":"W207","name":"Adamas Floreal","address1":"Mangalkhan","city":"Curepipe","countryCode":"MR","phone":"+230 686 1248","location":{"lat":-20.305442,"lon":57.504759}}}
{"_index":"stores","_type":"_doc","_id":"099","_score":1,"_source":{"id":"099","name":"FRED Galleria Gwanggyo","address1":"1F Galleria Gwanggyo department store","address2":"124, Gwanggyojungang-ro(Hadong), Yeongtong-gu, Suwon-si, Gyeonggi-do","city":"Seoul","countryCode":"KR","phone":"0082 31-5174-7134","location":{"lat":37.288573,"lon":127.060526}}}
{"_index":"stores","_type":"_doc","_id":"163","_score":1,"_source":{"id":"163","name":"FRED HANGZHOU TOWER","address1":"Shop 130, Tower B, Hangzhou Tower","city":"Hangzhou","postalCode":"310016","countryCode":"CN","phone":"0086 571 86033275","location":{"lat":30.28008,"lon":120.16063}}}
{"_index":"stores","_type":"_doc","_id":"W203","_score":1,"_source":{"id":"W203","name":"Amaya Joyeros","address1":"Plaza Calvo Sotelo, 12","city":"Alicante","postalCode":"03001","countryCode":"ES","phone":"+34965217141","location":{"lat":38.344114,"lon":-0.488632}}}
{"_index":"stores","_type":"_doc","_id":"166","_score":1,"_source":{"id":"166","name":"Dalian Olympia 66","address1":"Shop No.L118, No.66 Wusi Road, Xigang District, Liaoning Province","city":"Dalian","postalCode":"116021","countryCode":"CN","phone":"0086 (0)411-39617188","email":"dl.olympia66@fred.fr","location":{"lat":38.906245,"lon":121.60981}}}
{"_index":"stores","_type":"_doc","_id":"W210","_score":1,"_source":{"id":"W210","name":"SCHAAP EN CITROEN","address1":"P.C. Hooftstraat 51","city":"AMSTERDAM","postalCode":"1071 BN","countryCode":"NL","phone":"+31 20 303 1192","location":{"lat":52.360493,"lon":4.881797}}}
{"_index":"stores","_type":"_doc","_id":"W211","_score":1,"_source":{"id":"W211","name":"MARIOTTI ILE ROUSSE","address1":"12 Rue Georges Clemenceau","city":"Calvi","postalCode":"20260","countryCode":"FR","phone":"04 95 65 01 82","location":{"lat":42.566373,"lon":8.757668}}}
{"_index":"stores","_type":"_doc","_id":"W204","_score":1,"_source":{"id":"W204","name":"ANSHINDO Hamamatsu","address1":"3-15-1 Chuo, Naka-ku, Hamamatsu-shi","city":"Shizuoka","postalCode":"430-0929","countryCode":"JP","phone":"053-454-7551","location":{"lat":34.708108,"lon":137.741685}}}
{"_index":"stores","_type":"_doc","_id":"901","_score":1,"_source":{"id":"901","name":"Daejeon Shinsegae ART & SCIENCE FRED","address1":"1, Expo-ro, Yuseong-gu","city":"Daejeon","countryCode":"KR","phone":"0082426078127","location":{"lat":36.37546,"lon":127.381982}}}
{"_index":"stores","_type":"_doc","_id":"W212","_score":1,"_source":{"id":"W212","name":"MORNIER INTENDANCE","address1":"12 Place des Grands Hommes","city":"Bordeaux","postalCode":"33000","countryCode":"FR","phone":"05 56 30 58 50","location":{"lat":44.843296,"lon":-0.577632}}}
{"_index":"stores","_type":"_doc","_id":"W213","_score":1,"_source":{"id":"W213","name":"EDOUARD GENTON Cap-Ferret","address1":"17 Rue des Goélands","city":"Lège-Cap-Ferret","postalCode":"33970","countryCode":"FR","phone":"07 62 70 56 42","location":{"lat":44.648653,"lon":-1.248195}}}
{"_index":"stores","_type":"_doc","_id":"095","_score":1,"_source":{"id":"095","name":"Lotte Dongtan FRED POPUP","address1":"967-2419, Osan-dong, Hwaseong-si, Gyeonggi-do","city":"Gyeonggi","postalCode":"445-150","countryCode":"KR","phone":"823180363617","email":"lotte.dongtan@fred.fr","location":{"lat":37.201121,"lon":127.097478}}}
{"_index":"stores","_type":"_doc","_id":"029","_score":1,"_source":{"id":"029","name":"FRED POP-UP NIKKI BEACH","address1":"1093 Route de l'Épi","city":"Ramatuelle","postalCode":"83350","countryCode":"FR","phone":"06 70 04 85 60","location":{"lat":43.220814,"lon":6.660051}}}
{"_index":"stores","_type":"_doc","_id":"167","_score":1,"_source":{"id":"167","name":"FRED Wuhan Heartland","address1":"L117A，Wuhan Heartland, No.668 Jinghan Avenue","city":"Wuhan","postalCode":"430030","countryCode":"CN","phone":"027-8588 7566","location":{"lat":30.578658,"lon":114.273993}}}
{"_index":"stores","_type":"_doc","_id":"321","_score":1,"_source":{"id":"321","name":"Fred Taipei Breeze Pop Up","address1":"Breeze Center 1F, Sec.1, No. 39 Fuxing S. Road, Songshan District","city":"Taipei","postalCode":"105","countryCode":"TW","phone":"+886 983 285 028","location":{"lat":25.046234,"lon":121.544518}}}
{"_index":"stores","_type":"_doc","_id":"158","_score":1,"_source":{"id":"158","name":"FRED Qingdao Hisense","address1":"L1126-1, Hisense Plaza, Ao Men Road","city":"Qingdao","postalCode":"266071","countryCode":"CN","stateCode":"Shandong","phone":"+86 532 66788020","location":{"lat":36.060825,"lon":120.395124}}}
{"_index":"stores","_type":"_doc","_id":"164","_score":1,"_source":{"id":"164","name":"FRED BEIJING WANGFU CENTRAL","address1":"L114c store, Wangfu Central, No.269, Wangfujing Avenue,  Dongcheng District","city":"Beijing","postalCode":"100000","countryCode":"CN","phone":"0086 10 65679858","location":{"lat":39.883693,"lon":116.399058}}}
{"_index":"stores","_type":"_doc","_id":"W208","_score":1,"_source":{"id":"W208","name":"Adamas Port Louis","address1":"Dias Pier","city":"Caudan Waterfront","countryCode":"MR","phone":"+230 210 1462","location":{"lat":-20.161618,"lon":57.499346}}}
{"_index":"stores","_type":"_doc","_id":"162","_score":1,"_source":{"id":"162","name":"FRED SHENYANG FORUM 66","address1":"Shop 145, Forum 66 Shopping Mall","city":"Shenyang","postalCode":"110000","countryCode":"CN","phone":"0086 24 31051008","location":{"lat":41.80524,"lon":123.43379}}}
{"_index":"stores","_type":"_doc","_id":"W206","_score":1,"_source":{"id":"W206","name":"Pijnenburg Juweliers","address1":"Demer 49","city":"Eindhoven","postalCode":"5611AP","countryCode":"NL","phone":"+ 31 40 244 42 22","location":{"lat":51.493148,"lon":5.494158}}}
{"_index":"stores","_type":"_doc","_id":"700","_score":1,"_source":{"id":"700","name":"FRED DUBAI MALL","address1":"The Dubai Mall – Dubai – UAE","address2":"Ground Floor","city":"Dubai","countryCode":"AE","phone":"+971 (0)4 59 16 030","email":"dubai@fred.fr","location":{"lat":25.199503,"lon":55.279627}}}
